{

    "type":"FeatureCollection",
    "features":[
        {
            "type":"Feature",
            "geometry":{
                "type":"Point",
                "coordinates":[
                    "70.4645",
                    "56.2851"
                ]
            },
            "properties":{
                "Station":"ARBT",
                "Location":"Тюменская область, Абатский район, село Абатское, улица Революции",
                "Lat":"56.2851",
                "Lon":"70.4645",
                "web":"http://109.233.226.34/ "
            }
        },
        {
            "type":"Feature",
            "geometry":{
                "type":"Point",
                "coordinates":[
                    "67.6776",
                    "55.9413"
                ]
            },
            "properties":{
                "Station":"ARMZ",
                "Location":"Тюменская область, Армизонский район, село Армизонское, улица Кирова",
                "Lat":"55.9413",
                "Lon":"67.6776",
                "web":"http://109.233.226.34/ "
            }
        },
        {
            "type":"Feature",
            "geometry":{
                "type":"Point",
                "coordinates":[
                    "68.6468",
                    "56.8651"
                ]
            },
            "properties":{
                "Station":"AROM",
                "Location":"Тюменская область, Аромашевский район, село Аромашево, улица Ленина",
                "Lat":"56.8651",
                "Lon":"68.6468",
                "web":"http://109.233.226.34/ "
            }
        },
        {
            "type":"Feature",
            "geometry":{
                "type":"Point",
                "coordinates":[
                    "68.3129",
                    "55.8049"
                ]
            },
            "properties":{
                "Station":"BERD",
                "Location":"Тюменская область, Бердюжский район, село Бердюжье, улица Крупской",
                "Lat":"55.8049",
                "Lon":"68.3129",
                "web":"http://109.233.226.34/ "
            }
        },
        {
            "type":"Feature",
            "geometry":{
                "type":"Point",
                "coordinates":[
                    "69.3278",
                    "59.5929"
                ]
            },
            "properties":{
                "Station":"DEMN",
                "Location":"Тюменская область, Уватский район, село Демьянское",
                "Lat":"59.5929",
                "Lon":"69.3278",
                "web":"http://109.233.226.34/ "
            }
        },
        {
            "type":"Feature",
            "geometry":{
                "type":"Point",
                "coordinates":[
                    "68.3763",
                    "56.3961"
                ]
            },
            "properties":{
                "Station":"GOLM",
                "Location":"Тюменская область, Голышмановский район, поселок городского типа Голышманово, Садовая улица",
                "Lat":"56.3961",
                "Lon":"68.3763",
                "web":"http://109.233.226.34/ "
            }
        },
        {
            "type":"Feature",
            "geometry":{
                "type":"Point",
                "coordinates":[
                    "65.3267",
                    "56.4758"
                ]
            },
            "properties":{
                "Station":"ISET",
                "Location":"Тюменская область, Исетский район, село Исетское, улица Чкалова",
                "Lat":"56.4758",
                "Lon":"65.3267",
                "web":"http://109.233.226.34/ "
            }
        },
        {
            "type":"Feature",
            "geometry":{
                "type":"Point",
                "coordinates":[
                    "69.4649",
                    "56.1014"
                ]
            },
            "properties":{
                "Station":"ISIM",
                "Location":"Тюменская область, Ишим, Береговая улица",
                "Lat":"56.1014",
                "Lon":"69.4649",
                "web":"http://109.233.226.34/ "
            }
        },
        {
            "type":"Feature",
            "geometry":{
                "type":"Point",
                "coordinates":[
                    "69.9687",
                    "59.1022"
                ]
            },
            "properties":{
                "Station":"KALH",
                "Location":"Тюменская область",
                "Lat":"59.1022",
                "Lon":"69.9687",
                "web":"http://109.233.226.34/ "
            }
        },
        {
            "type":"Feature",
            "geometry":{
                "type":"Point",
                "coordinates":[
                    "69.2187",
                    "55.6449"
                ]
            },
            "properties":{
                "Station":"KAZN",
                "Location":"Тюменская область, Казанский район, село Казанское",
                "Lat":"55.6449",
                "Lon":"69.2187",
                "web":"http://109.233.226.34/ "
            }
        },
        {
            "type":"Feature",
            "geometry":{
                "type":"Point",
                "coordinates":[
                    "66.1726",
                    "57.6728"
                ]
            },
            "properties":{
                "Station":"NTAV",
                "Location":"Тюменская область, Нижнетавдинский район, село Нижняя Тавда, улица Калинина",
                "Lat":"57.6728",
                "Lon":"66.1726",
                "web":"http://109.233.226.34/ "
            }
        },
        {
            "type":"Feature",
            "geometry":{
                "type":"Point",
                "coordinates":[
                    "67.6787",
                    "56.4680"
                ]
            },
            "properties":{
                "Station":"OMUT",
                "Location":"Тюменская область, Омутинский район, село Омутинское, улица Космонавтов",
                "Lat":"56.4680",
                "Lon":"67.6787",
                "web":"http://109.233.226.34/ "
            }
        },
        {
            "type":"Feature",
            "geometry":{
                "type":"Point",
                "coordinates":[
                    "70.3345",
                    "55.5278"
                ]
            },
            "properties":{
                "Station":"SLAD",
                "Location":"Тюменская область, Сладковский район, село Сладково, улица Ленина",
                "Lat":"55.5278",
                "Lon":"70.3345",
                "web":"http://109.233.226.34/ "
            }
        },
        {
            "type":"Feature",
            "geometry":{
                "type":"Point",
                "coordinates":[
                    "69.8105",
                    "56.6360"
                ]
            },
            "properties":{
                "Station":"SORK",
                "Location":"Тюменская область, Сорокинский район, село Большое Сорокино",
                "Lat":"56.6360",
                "Lon":"69.8105",
                "web":"http://109.233.226.34/ "
            }
        },
        {
            "type":"Feature",
            "geometry":{
                "type":"Point",
                "coordinates":[
                    "71.8839",
                    "59.0601"
                ]
            },
            "properties":{
                "Station":"TAMN",
                "Location":"Тюменская область",
                "Lat":"59.0601",
                "Lon":"71.8839",
                "web":"http://109.233.226.34/ "
            }
        },
        {
            "type":"Feature",
            "geometry":{
                "type":"Point",
                "coordinates":[
                    "68.2808",
                    "58.2268"
                ]
            },
            "properties":{
                "Station":"TOBL",
                "Location":"Тюменская область, Тобольск, 8-й микрорайон",
                "Lat":"58.2268",
                "Lon":"68.2808",
                "web":"http://109.233.226.34/ "
            }
        },
        {
            "type":"Feature",
            "geometry":{
                "type":"Point",
                "coordinates":[
                    "65.5446",
                    "57.1475"
                ]
            },
            "properties":{
                "Station":"TUMN",
                "Location":"Тюмень, улица Некрасова",
                "Lat":"57.1475",
                "Lon":"65.5446",
                "web":"http://109.233.226.34/ "
            }
        },
        {
            "type":"Feature",
            "geometry":{
                "type":"Point",
                "coordinates":[
                    "66.2676",
                    "56.3125"
                ]
            },
            "properties":{
                "Station":"UPOR",
                "Location":"Тюменская область, Упоровский район, село Упорово, улица Володарского",
                "Lat":"56.3125",
                "Lon":"66.2676",
                "web":"http://109.233.226.34/ "
            }
        },
        {
            "type":"Feature",
            "geometry":{
                "type":"Point",
                "coordinates":[
                    "67.3914",
                    "56.8183"
                ]
            },
            "properties":{
                "Station":"URGI",
                "Location":"Тюменская область, Юргинский район, село Юргинское, Центральная улица",
                "Lat":"56.8183",
                "Lon":"67.3914",
                "web":"http://109.233.226.34/ "
            }
        },
        {
            "type":"Feature",
            "geometry":{
                "type":"Point",
                "coordinates":[
                    "73.9902",
                    "58.7059"
                ]
            },
            "properties":{
                "Station":"UTEG",
                "Location":"Тюменская область",
                "Lat":"58.7059",
                "Lon":"73.9902",
                "web":"http://109.233.226.34/ "
            }
        },
        {
            "type":"Feature",
            "geometry":{
                "type":"Point",
                "coordinates":[
                    "68.9548",
                    "59.1404"
                ]
            },
            "properties":{
                "Station":"UVAT",
                "Location":"Тюменская область, Уватский район, поселок Кирсарай, Дорожная улица",
                "Lat":"59.1404",
                "Lon":"68.9548",
                "web":"http://109.233.226.34/ "
            }
        },
        {
            "type":"Feature",
            "geometry":{
                "type":"Point",
                "coordinates":[
                    "69.0226",
                    "57.9383"
                ]
            },
            "properties":{
                "Station":"VAGA",
                "Location":"Тюменская область, Вагайский район, село Вагай, улица Ленина",
                "Lat":"57.9383",
                "Lon":"69.0226",
                "web":"http://109.233.226.34/ "
            }
        },
        {
            "type":"Feature",
            "geometry":{
                "type":"Point",
                "coordinates":[
                    "70.6138",
                    "56.8217"
                ]
            },
            "properties":{
                "Station":"VIKU",
                "Location":"Тюменская область, Викуловский район, село Викулово",
                "Lat":"56.8217",
                "Lon":"70.6138",
                "web":"http://109.233.226.34/ "
            }
        },
        {
            "type":"Feature",
            "geometry":{
                "type":"Point",
                "coordinates":[
                    "66.3188",
                    "56.6581"
                ]
            },
            "properties":{
                "Station":"YALT",
                "Location":"Тюменская область, Ялуторовск, Тобольская улица",
                "Lat":"56.6581",
                "Lon":"66.3188",
                "web":"http://109.233.226.34/ "
            }
        },
        {
            "type":"Feature",
            "geometry":{
                "type":"Point",
                "coordinates":[
                    "67.0762",
                    "57.4009"
                ]
            },
            "properties":{
                "Station":"YARK",
                "Location":"Тюменская область, Ярковский район, село Ярково, улица Ленина",
                "Lat":"57.4009",
                "Lon":"67.0762",
                "web":"http://109.233.226.34/ "
            }
        },
        {
            "type":"Feature",
            "geometry":{
                "type":"Point",
                "coordinates":[
                    "65.5534",
                    "57.1579"
                ]
            },
            "properties":{
                "Station":"ЭФТ-Тюмень",
                "Location":"Тюмень, Центральный округ",
                "Lat":"57.1579",
                "Lon":"65.5534",
                "web":"http://www.cors.eftgroup.ru/ "
            }
        },
        {
            "type":"Feature",
            "geometry":{
                "type":"Point",
                "coordinates":[
                    "39.8618",
                    "57.6092"
                ]
            },
            "properties":{
                "Station":"Ярославль",
                "Location":"Ярославль, Большая Фёдоровская улица",
                "Lat":"57.6092",
                "Lon":"39.8618",
                "web":"http://www.cors.eftgroup.ru/ "
            }
        },
        {
            "type":"Feature",
            "geometry":{
                "type":"Point",
                "coordinates":[
                    "38.6607",
                    "55.3216"
                ]
            },
            "properties":{
                "Station":"ЭФТ-Воскресенск",
                "Location":"Московская область, Воскресенск, микрорайон Центральный, улица Докторова",
                "Lat":"55.3216",
                "Lon":"38.6607",
                "web":"http://www.cors.eftgroup.ru/ "
            }
        },
        {
            "type":"Feature",
            "geometry":{
                "type":"Point",
                "coordinates":[
                    "37.6308",
                    "54.2167"
                ]
            },
            "properties":{
                "Station":"Тула",
                "Location":"Тула, улица Максимовского",
                "Lat":"54.2167",
                "Lon":"37.6308",
                "web":"http://www.cors.eftgroup.ru/ "
            }
        },
        {
            "type":"Feature",
            "geometry":{
                "type":"Point",
                "coordinates":[
                    "36.1922",
                    "55.7023"
                ]
            },
            "properties":{
                "Station":"ЭФТ-Руза",
                "Location":"Московская область, Руза, улица Солнцева",
                "Lat":"55.7023",
                "Lon":"36.1922",
                "web":"http://www.cors.eftgroup.ru/ "
            }
        },
        {
            "type":"Feature",
            "geometry":{
                "type":"Point",
                "coordinates":[
                    "37.6196",
                    "55.8201"
                ]
            },
            "properties":{
                "Station":"ЭФТ-Москва",
                "Location":"Москва, улица Академика Королёва",
                "Lat":"55.8201",
                "Lon":"37.6196",
                "web":"http://www.cors.eftgroup.ru/ "
            }
        },
        {
            "type":"Feature",
            "geometry":{
                "type":"Point",
                "coordinates":[
                    "37.4428",
                    "54.9406"
                ]
            },
            "properties":{
                "Station":"ЭФТ-Серпухов",
                "Location":"Московская область, Серпухов, Северное шоссе",
                "Lat":"54.9406",
                "Lon":"37.4428",
                "web":"http://www.cors.eftgroup.ru/ "
            }
        },
        {
            "type":"Feature",
            "geometry":{
                "type":"Point",
                "coordinates":[
                    "37.4882",
                    "55.1527"
                ]
            },
            "properties":{
                "Station":"Чехов",
                "Location":"Московская область, Чехов, Октябрьская улица",
                "Lat":"55.1527",
                "Lon":"37.4882",
                "web":"http://www.cors.eftgroup.ru/ "
            }
        },
        {
            "type":"Feature",
            "geometry":{
                "type":"Point",
                "coordinates":[
                    "36.6253",
                    "55.1195"
                ]
            },
            "properties":{
                "Station":"ЭФТ-Обнинск",
                "Location":"Калужская область, Обнинск, улица Курчатова",
                "Lat":"55.1195",
                "Lon":"36.6253",
                "web":"http://www.cors.eftgroup.ru/ "
            }
        },
        {
            "type":"Feature",
            "geometry":{
                "type":"Point",
                "coordinates":[
                    "36.8603",
                    "55.9120"
                ]
            },
            "properties":{
                "Station":"Истра",
                "Location":"Московская область, Истра, улица Адасько",
                "Lat":"55.9120",
                "Lon":"36.8603",
                "web":"http://www.cors.eftgroup.ru/ "
            }
        },
        {
            "type":"Feature",
            "geometry":{
                "type":"Point",
                "coordinates":[
                    "36.7251",
                    "55.3848"
                ]
            },
            "properties":{
                "Station":"Наро-Фоминск",
                "Location":"Московская область, Наро-Фоминск, улица Маршала Жукова",
                "Lat":"55.3848",
                "Lon":"36.7251",
                "web":"http://www.cors.eftgroup.ru/ "
            }
        },
        {
            "type":"Feature",
            "geometry":{
                "type":"Point",
                "coordinates":[
                    "36.4999",
                    "54.1253"
                ]
            },
            "properties":{
                "Station":"Суворов",
                "Location":"Тульская область, Суворов, улица Ленина",
                "Lat":"54.1253",
                "Lon":"36.4999",
                "web":"http://www.cors.eftgroup.ru/ "
            }
        },
        {
            "type":"Feature",
            "geometry":{
                "type":"Point",
                "coordinates":[
                    "46.0182",
                    "51.5513"
                ]
            },
            "properties":{
                "Station":"ЭФТ-Саратов",
                "Location":"Саратов, улица Танкистов",
                "Lat":"51.5513",
                "Lon":"46.0182",
                "web":"http://www.cors.eftgroup.ru/ "
            }
        },
        {
            "type":"Feature",
            "geometry":{
                "type":"Point",
                "coordinates":[
                    "38.1191",
                    "53.1468"
                ]
            },
            "properties":{
                "Station":"Ефремов",
                "Location":"Тульская область, Ефремов, улица Ленина",
                "Lat":"53.1468",
                "Lon":"38.1191",
                "web":"http://www.cors.eftgroup.ru/ "
            }
        },
        {
            "type":"Feature",
            "geometry":{
                "type":"Point",
                "coordinates":[
                    "40.3958",
                    "56.1433"
                ]
            },
            "properties":{
                "Station":"ЭФТ-Владимир",
                "Location":"Владимир, улица Связи",
                "Lat":"56.1433",
                "Lon":"40.3958",
                "web":"http://www.cors.eftgroup.ru/ "
            }
        },
        {
            "type":"Feature",
            "geometry":{
                "type":"Point",
                "coordinates":[
                    "30.2563",
                    "60.0001"
                ]
            },
            "properties":{
                "Station":"Санкт-Петербург",
                "Location":"Санкт-Петербург, Гаккелевская улица",
                "Lat":"60.0001",
                "Lon":"30.2563",
                "web":"http://www.cors.eftgroup.ru/ "
            }
        },
        {
            "type":"Feature",
            "geometry":{
                "type":"Point",
                "coordinates":[
                    "35.8432",
                    "56.8546"
                ]
            },
            "properties":{
                "Station":"Тверь2",
                "Location":"Тверь, улица Маршала Буденного",
                "Lat":"56.8546",
                "Lon":"35.8432",
                "web":"http://www.cors.eftgroup.ru/ "
            }
        },
        {
            "type":"Feature",
            "geometry":{
                "type":"Point",
                "coordinates":[
                    "38.8498",
                    "56.7342"
                ]
            },
            "properties":{
                "Station":"Переславль-Залесский",
                "Location":"Ярославская область, Переславль-Залесский, квартал Старый Город",
                "Lat":"56.7342",
                "Lon":"38.8498",
                "web":"http://www.cors.eftgroup.ru/ "
            }
        },
        {
            "type":"Feature",
            "geometry":{
                "type":"Point",
                "coordinates":[
                    "39.7424",
                    "54.6263"
                ]
            },
            "properties":{
                "Station":"Рязань",
                "Location":"Рязань, Праволыбедская улица",
                "Lat":"54.6263",
                "Lon":"39.7424",
                "web":"http://www.cors.eftgroup.ru/ "
            }
        },
        {
            "type":"Feature",
            "geometry":{
                "type":"Point",
                "coordinates":[
                    "39.5512",
                    "52.6000"
                ]
            },
            "properties":{
                "Station":"Липецк",
                "Location":"Липецк, улица Крылова",
                "Lat":"52.6000",
                "Lon":"39.5512",
                "web":"http://www.cors.eftgroup.ru/ "
            }
        },
        {
            "type":"Feature",
            "geometry":{
                "type":"Point",
                "coordinates":[
                    "39.1701",
                    "51.6766"
                ]
            },
            "properties":{
                "Station":"ЭФТ-Воронеж",
                "Location":"Воронеж, проспект Труда",
                "Lat":"51.6766",
                "Lon":"39.1701",
                "web":"http://www.cors.eftgroup.ru/ "
            }
        },
        {
            "type":"Feature",
            "geometry":{
                "type":"Point",
                "coordinates":[
                    "30.2555",
                    "60"
                ]
            },
            "properties":{
                "Station":"ЭФТ Санкт-Петербург2",
                "Location":"Санкт-Петербург, Гаккелевская улица",
                "Lat":"60",
                "Lon":"30.2555",
                "web":"http://www.cors.eftgroup.ru/ "
            }
        },
        {
            "type":"Feature",
            "geometry":{
                "type":"Point",
                "coordinates":[
                    "35.9151",
                    "56.8674"
                ]
            },
            "properties":{
                "Station":"ЭФТ-Тверь3",
                "Location":"Тверь, улица Горького",
                "Lat":"56.8674",
                "Lon":"35.9151",
                "web":"http://www.cors.eftgroup.ru/ "
            }
        },
        {
            "type":"Feature",
            "geometry":{
                "type":"Point",
                "coordinates":[
                    "37.4430",
                    "54.9408"
                ]
            },
            "properties":{
                "Station":"ЭФТ-Серпухов2",
                "Location":"Московская область, Серпуховский район, деревня Ивановское",
                "Lat":"54.9408",
                "Lon":"37.4430",
                "web":"http://www.cors.eftgroup.ru/ "
            }
        },
        {
            "type":"Feature",
            "geometry":{
                "type":"Point",
                "coordinates":[
                    "29.7631",
                    "59.9961"
                ]
            },
            "properties":{
                "Station":"ЭФТ-Кронштадт",
                "Location":"Санкт-Петербург, Кронштадт, Андреевская улица",
                "Lat":"59.9961",
                "Lon":"29.7631",
                "web":"http://www.cors.eftgroup.ru/ "
            }
        },
        {
            "type":"Feature",
            "geometry":{
                "type":"Point",
                "coordinates":[
                    "132.8993",
                    "42.8376"
                ]
            },
            "properties":{
                "Station":"ЭФТ-Находка",
                "Location":"Приморский край, Находка, улица Малиновского",
                "Lat":"42.8376",
                "Lon":"132.8993",
                "web":"http://www.cors.eftgroup.ru/ "
            }
        },
        {
            "type":"Feature",
            "geometry":{
                "type":"Point",
                "coordinates":[
                    "50.8154",
                    "61.663"
                ]
            },
            "properties":{
                "Station":"SYKTYVKAR",
                "Location":"Республика Коми, Сыктывкар, Октябрьский проспект",
                "Lat":"61.663",
                "Lon":"50.8154",
                "web":"http://www.rusnavgeo.ru/ "
            }
        },
        {
            "type":"Feature",
            "geometry":{
                "type":"Point",
                "coordinates":[
                    "49.1192",
                    "55.7907"
                ]
            },
            "properties":{
                "Station":"KAZAN",
                "Location":"Республика Татарстан, Казань, Кремлёвская улица",
                "Lat":"55.7907",
                "Lon":"49.1192",
                "web":"http://www.rusnavgeo.ru/ "
            }
        },
        {
            "type":"Feature",
            "geometry":{
                "type":"Point",
                "coordinates":[
                    "40.3959",
                    "56.1433"
                ]
            },
            "properties":{
                "Station":"VLADIMIR",
                "Location":"Владимир, улица Связи",
                "Lat":"56.1433",
                "Lon":"40.3959",
                "web":"http://www.rusnavgeo.ru/ "
            }
        },
        {
            "type":"Feature",
            "geometry":{
                "type":"Point",
                "coordinates":[
                    "36.6253",
                    "55.1196"
                ]
            },
            "properties":{
                "Station":"OBNINSK",
                "Location":"Калужская область, Обнинск, улица Курчатова",
                "Lat":"55.1196",
                "Lon":"36.6253",
                "web":"http://www.rusnavgeo.ru/ "
            }
        },
        {
            "type":"Feature",
            "geometry":{
                "type":"Point",
                "coordinates":[
                    "37.4882",
                    "55.1528"
                ]
            },
            "properties":{
                "Station":"CHEKHOV",
                "Location":"Московская область, Чехов, Октябрьская улица",
                "Lat":"55.1528",
                "Lon":"37.4882",
                "web":"http://www.rusnavgeo.ru/ "
            }
        },
        {
            "type":"Feature",
            "geometry":{
                "type":"Point",
                "coordinates":[
                    "36.8604",
                    "55.912"
                ]
            },
            "properties":{
                "Station":"ISTRA",
                "Location":"Московская область, Истра, улица Адасько",
                "Lat":"55.912",
                "Lon":"36.8604",
                "web":"http://www.rusnavgeo.ru/ "
            }
        },
        {
            "type":"Feature",
            "geometry":{
                "type":"Point",
                "coordinates":[
                    "37.8565",
                    "56.0165"
                ]
            },
            "properties":{
                "Station":"PUSHKINO",
                "Location":"Московская область, Пушкино, микрорайон Новая Деревня, Институтская улица",
                "Lat":"56.0165",
                "Lon":"37.8565",
                "web":"http://www.rusnavgeo.ru/ "
            }
        },
        {
            "type":"Feature",
            "geometry":{
                "type":"Point",
                "coordinates":[
                    "38.6608",
                    "55.3216"
                ]
            },
            "properties":{
                "Station":"VOSKRESENSK",
                "Location":"Московская область, Воскресенск, микрорайон Центральный, улица Докторова",
                "Lat":"55.3216",
                "Lon":"38.6608",
                "web":"http://www.rusnavgeo.ru/ "
            }
        },
        {
            "type":"Feature",
            "geometry":{
                "type":"Point",
                "coordinates":[
                    "36.1924",
                    "55.7024"
                ]
            },
            "properties":{
                "Station":"RUZA",
                "Location":"Московская область, Руза, улица Солнцева",
                "Lat":"55.7024",
                "Lon":"36.1924",
                "web":"http://www.rusnavgeo.ru/ "
            }
        },
        {
            "type":"Feature",
            "geometry":{
                "type":"Point",
                "coordinates":[
                    "38.6743",
                    "55.3265"
                ]
            },
            "properties":{
                "Station":"VOSKRESENSK2",
                "Location":"Московская область, Воскресенск, микрорайон Центральный, улица Хрипунова",
                "Lat":"55.3265",
                "Lon":"38.6743",
                "web":"http://www.rusnavgeo.ru/ "
            }
        },
        {
            "type":"Feature",
            "geometry":{
                "type":"Point",
                "coordinates":[
                    "37.4429",
                    "54.9406"
                ]
            },
            "properties":{
                "Station":"SERPUKHOV",
                "Location":"Московская область, Серпухов, Северное шоссе",
                "Lat":"54.9406",
                "Lon":"37.4429",
                "web":"http://www.rusnavgeo.ru/ "
            }
        },
        {
            "type":"Feature",
            "geometry":{
                "type":"Point",
                "coordinates":[
                    "37.5389",
                    "56.3442"
                ]
            },
            "properties":{
                "Station":"DMITROV",
                "Location":"Московская область, Дмитров, Большевистская улица",
                "Lat":"56.3442",
                "Lon":"37.5389",
                "web":"http://www.rusnavgeo.ru/ "
            }
        },
        {
            "type":"Feature",
            "geometry":{
                "type":"Point",
                "coordinates":[
                    "37.1803",
                    "55.3201"
                ]
            },
            "properties":{
                "Station":"VORONOVO",
                "Location":"Москва, поселение Вороновское",
                "Lat":"55.3201",
                "Lon":"37.1803",
                "web":"http://www.rusnavgeo.ru/ "
            }
        },
        {
            "type":"Feature",
            "geometry":{
                "type":"Point",
                "coordinates":[
                    "33.0934",
                    "68.9571"
                ]
            },
            "properties":{
                "Station":"MURMANSK_CENTER",
                "Location":"Мурманск, улица Книповича",
                "Lat":"68.9571",
                "Lon":"33.0934",
                "web":"http://www.rusnavgeo.ru/ "
            }
        },
        {
            "type":"Feature",
            "geometry":{
                "type":"Point",
                "coordinates":[
                    "33.0944",
                    "69.0155"
                ]
            },
            "properties":{
                "Station":"MURMANSK_NORTH",
                "Location":"Мурманск, улица Лобова",
                "Lat":"69.0155",
                "Lon":"33.0944",
                "web":"http://www.rusnavgeo.ru/ "
            }
        },
        {
            "type":"Feature",
            "geometry":{
                "type":"Point",
                "coordinates":[
                    "33.0715",
                    "68.8998"
                ]
            },
            "properties":{
                "Station":"MURMANSK_SOUTH",
                "Location":"Мурманск, 303-й микрорайон",
                "Lat":"68.8998",
                "Lon":"33.0715",
                "web":"http://www.rusnavgeo.ru/ "
            }
        },
        {
            "type":"Feature",
            "geometry":{
                "type":"Point",
                "coordinates":[
                    "46.0182",
                    "51.5514"
                ]
            },
            "properties":{
                "Station":"SARATOV",
                "Location":"Саратов, улица Танкистов",
                "Lat":"51.5514",
                "Lon":"46.0182",
                "web":"http://www.rusnavgeo.ru/ "
            }
        },
        {
            "type":"Feature",
            "geometry":{
                "type":"Point",
                "coordinates":[
                    "31.8388",
                    "55.5101"
                ]
            },
            "properties":{
                "Station":"PRZHEVALSKOE",
                "Location":"Смоленская область, Демидовский район, поселок городского типа Пржевальское, улица Гуревича",
                "Lat":"55.5101",
                "Lon":"31.8388",
                "web":"http://www.rusnavgeo.ru/ "
            }
        },
        {
            "type":"Feature",
            "geometry":{
                "type":"Point",
                "coordinates":[
                    "37.6309",
                    "54.2167"
                ]
            },
            "properties":{
                "Station":"TULA2",
                "Location":"Тула, улица Максимовского",
                "Lat":"54.2167",
                "Lon":"37.6309",
                "web":"http://www.rusnavgeo.ru/ "
            }
        },
        {
            "type":"Feature",
            "geometry":{
                "type":"Point",
                "coordinates":[
                    "65.5534",
                    "57.1579"
                ]
            },
            "properties":{
                "Station":"TYUMEN",
                "Location":"Тюмень, Центральный округ",
                "Lat":"57.1579",
                "Lon":"65.5534",
                "web":"http://www.rusnavgeo.ru/ "
            }
        },
        {
            "type":"Feature",
            "geometry":{
                "type":"Point",
                "coordinates":[
                    "38.3184",
                    "57.5258"
                ]
            },
            "properties":{
                "Station":"UGLICH",
                "Location":"Ярославская область, Углич, Успенская площадь",
                "Lat":"57.5258",
                "Lon":"38.3184",
                "web":"http://www.rusnavgeo.ru/ "
            }
        },
        {
            "type":"Feature",
            "geometry":{
                "type":"Point",
                "coordinates":[
                    "37.6197",
                    "55.8201"
                ]
            },
            "properties":{
                "Station":"MOSCOW_NORTH",
                "Location":"Москва, улица Академика Королёва",
                "Lat":"55.8201",
                "Lon":"37.6197",
                "web":"http://www.rusnavgeo.ru/ "
            }
        },
        {
            "type":"Feature",
            "geometry":{
                "type":"Point",
                "coordinates":[
                    "37.7553",
                    "55.7482"
                ]
            },
            "properties":{
                "Station":"MOSCOW_EAST",
                "Location":"Москва, Перовская улица",
                "Lat":"55.7482",
                "Lon":"37.7553",
                "web":"http://www.rusnavgeo.ru/ "
            }
        },
        {
            "type":"Feature",
            "geometry":{
                "type":"Point",
                "coordinates":[
                    "30.2563",
                    "60.0001"
                ]
            },
            "properties":{
                "Station":"STPETERSBURG",
                "Location":"Санкт-Петербург, Гаккелевская улица",
                "Lat":"60.0001",
                "Lon":"30.2563",
                "web":"http://www.rusnavgeo.ru/ "
            }
        },
        {
            "type":"Feature",
            "geometry":{
                "type":"Point",
                "coordinates":[
                    "37.5475",
                    "55.6627"
                ]
            },
            "properties":{
                "Station":"MOSCOW_SOUTH",
                "Location":"Москва, Профсоюзная улица",
                "Lat":"55.6627",
                "Lon":"37.5475",
                "web":"http://www.rusnavgeo.ru/ "
            }
        },
        {
            "type":"Feature",
            "geometry":{
                "type":"Point",
                "coordinates":[
                    "131.89",
                    "43.05"
                ]
            },
            "properties":{
                "Station":"Владивосток-1",
                "Location":"Приморский край, городской округ Владивостокский, поселок Русский",
                "Lat":"43.05",
                "Lon":"131.89",
                "web":" "
            }
        },
        {
            "type":"Feature",
            "geometry":{
                "type":"Point",
                "coordinates":[
                    "131.902",
                    "43.06"
                ]
            },
            "properties":{
                "Station":"Владивосток-2",
                "Location":"Приморский край, городской округ Владивостокский, поселок Русский, Русский остров",
                "Lat":"43.06",
                "Lon":"131.902",
                "web":" "
            }
        },
        {
            "type":"Feature",
            "geometry":{
                "type":"Point",
                "coordinates":[
                    "135.11",
                    "48.46"
                ]
            },
            "properties":{
                "Station":"Хабаровск-1",
                "Location":"Хабаровск",
                "Lat":"48.46",
                "Lon":"135.11",
                "web":" "
            }
        },
        {
            "type":"Feature",
            "geometry":{
                "type":"Point",
                "coordinates":[
                    "39.70",
                    "47.22"
                ]
            },
            "properties":{
                "Station":"Ростов-на-Дону-1",
                "Location":"Ростов-на-Дону, Братский переулок",
                "Lat":"47.22",
                "Lon":"39.70",
                "web":" "
            }
        },
        {
            "type":"Feature",
            "geometry":{
                "type":"Point",
                "coordinates":[
                    "36.48",
                    "54.19"
                ]
            },
            "properties":{
                "Station":"Тула-1",
                "Location":"Тульская область, Суворовский район",
                "Lat":"54.19",
                "Lon":"36.48",
                "web":" "
            }
        },
        {
            "type":"Feature",
            "geometry":{
                "type":"Point",
                "coordinates":[
                    "36.15",
                    "54.13"
                ]
            },
            "properties":{
                "Station":"Тула-2",
                "Location":"Тульская область",
                "Lat":"54.13",
                "Lon":"36.15",
                "web":" "
            }
        },
        {
            "type":"Feature",
            "geometry":{
                "type":"Point",
                "coordinates":[
                    "36.13",
                    "53.81"
                ]
            },
            "properties":{
                "Station":"Тула-3",
                "Location":"Тульская область, Белёв, площадь Октября",
                "Lat":"53.81",
                "Lon":"36.13",
                "web":" "
            }
        },
        {
            "type":"Feature",
            "geometry":{
                "type":"Point",
                "coordinates":[
                    "38.12",
                    "53.15"
                ]
            },
            "properties":{
                "Station":"Тула-4",
                "Location":"Тульская область, Ефремов, улица Ломоносова",
                "Lat":"53.15",
                "Lon":"38.12",
                "web":" "
            }
        },
        {
            "type":"Feature",
            "geometry":{
                "type":"Point",
                "coordinates":[
                    "37.59",
                    "54.19"
                ]
            },
            "properties":{
                "Station":"Тула-5",
                "Location":"Тула, улица Фрунзе",
                "Lat":"54.19",
                "Lon":"37.59",
                "web":" "
            }
        },
        {
            "type":"Feature",
            "geometry":{
                "type":"Point",
                "coordinates":[
                    "36.13",
                    "53.81"
                ]
            },
            "properties":{
                "Station":"Тула-6",
                "Location":"Тульская область, Белёв, площадь Октября",
                "Lat":"53.81",
                "Lon":"36.13",
                "web":" "
            }
        },
        {
            "type":"Feature",
            "geometry":{
                "type":"Point",
                "coordinates":[
                    "36.4997",
                    "54.1251"
                ]
            },
            "properties":{
                "Station":"Тула-7",
                "Location":"Тульская область, Суворов, улица Ленина",
                "Lat":"54.1251",
                "Lon":"36.4997",
                "web":" "
            }
        },
        {
            "type":"Feature",
            "geometry":{
                "type":"Point",
                "coordinates":[
                    "42.03",
                    "56.13"
                ]
            },
            "properties":{
                "Station":"Владимир-1",
                "Location":"Владимирская область",
                "Lat":"56.13",
                "Lon":"42.03",
                "web":" "
            }
        },
        {
            "type":"Feature",
            "geometry":{
                "type":"Point",
                "coordinates":[
                    "42.03",
                    "55.56"
                ]
            },
            "properties":{
                "Station":"Владимир-2",
                "Location":"Владимирская область, городской округ Муром, поселок Муромский, Северная улица",
                "Lat":"55.56",
                "Lon":"42.03",
                "web":" "
            }
        },
        {
            "type":"Feature",
            "geometry":{
                "type":"Point",
                "coordinates":[
                    "34.26",
                    "54.09"
                ]
            },
            "properties":{
                "Station":"Калуга-1",
                "Location":"Калужская область",
                "Lat":"54.09",
                "Lon":"34.26",
                "web":" "
            }
        },
        {
            "type":"Feature",
            "geometry":{
                "type":"Point",
                "coordinates":[
                    "34.93",
                    "53.92"
                ]
            },
            "properties":{
                "Station":"Калуга-2",
                "Location":"Калужская область",
                "Lat":"53.92",
                "Lon":"34.93",
                "web":" "
            }
        },
        {
            "type":"Feature",
            "geometry":{
                "type":"Point",
                "coordinates":[
                    "35.42",
                    "53.69"
                ]
            },
            "properties":{
                "Station":"Калуга-3",
                "Location":"Калужская область",
                "Lat":"53.69",
                "Lon":"35.42",
                "web":" "
            }
        },
        {
            "type":"Feature",
            "geometry":{
                "type":"Point",
                "coordinates":[
                    "36.24",
                    "54.28"
                ]
            },
            "properties":{
                "Station":"Калуга-4",
                "Location":"Калужская область",
                "Lat":"54.28",
                "Lon":"36.24",
                "web":" "
            }
        },
        {
            "type":"Feature",
            "geometry":{
                "type":"Point",
                "coordinates":[
                    "36.19",
                    "54.52"
                ]
            },
            "properties":{
                "Station":"Калуга-5",
                "Location":"Калуга",
                "Lat":"54.52",
                "Lon":"36.19",
                "web":" "
            }
        },
        {
            "type":"Feature",
            "geometry":{
                "type":"Point",
                "coordinates":[
                    "35.49",
                    "54.98"
                ]
            },
            "properties":{
                "Station":"Калуга-6",
                "Location":"Калужская область",
                "Lat":"54.98",
                "Lon":"35.49",
                "web":" "
            }
        },
        {
            "type":"Feature",
            "geometry":{
                "type":"Point",
                "coordinates":[
                    "36.24",
                    "54.78"
                ]
            },
            "properties":{
                "Station":"Калуга-7",
                "Location":"Калужская область",
                "Lat":"54.78",
                "Lon":"36.24",
                "web":" "
            }
        },
        {
            "type":"Feature",
            "geometry":{
                "type":"Point",
                "coordinates":[
                    "36.80",
                    "55.06"
                ]
            },
            "properties":{
                "Station":"Калуга-8",
                "Location":"Калужская область",
                "Lat":"55.06",
                "Lon":"36.80",
                "web":" "
            }
        },
        {
            "type":"Feature",
            "geometry":{
                "type":"Point",
                "coordinates":[
                    "34.97",
                    "54.34"
                ]
            },
            "properties":{
                "Station":"Калуга-9",
                "Location":"Калужская область",
                "Lat":"54.34",
                "Lon":"34.97",
                "web":" "
            }
        },
        {
            "type":"Feature",
            "geometry":{
                "type":"Point",
                "coordinates":[
                    "47.18",
                    "60.63"
                ]
            },
            "properties":{
                "Station":"Киров-1",
                "Location":"",
                "Lat":"60.63",
                "Lon":"47.18",
                "web":" "
            }
        },
        {
            "type":"Feature",
            "geometry":{
                "type":"Point",
                "coordinates":[
                    "47.06",
                    "60.26"
                ]
            },
            "properties":{
                "Station":"Киров-2",
                "Location":"Кировская область",
                "Lat":"60.26",
                "Lon":"47.06",
                "web":" "
            }
        },
        {
            "type":"Feature",
            "geometry":{
                "type":"Point",
                "coordinates":[
                    "48.27",
                    "59.84"
                ]
            },
            "properties":{
                "Station":"Киров-3",
                "Location":"Кировская область, Опаринский район",
                "Lat":"59.84",
                "Lon":"48.27",
                "web":" "
            }
        },
        {
            "type":"Feature",
            "geometry":{
                "type":"Point",
                "coordinates":[
                    "47.41",
                    "59.42"
                ]
            },
            "properties":{
                "Station":"Киров-4",
                "Location":"Кировская область",
                "Lat":"59.42",
                "Lon":"47.41",
                "web":" "
            }
        },
        {
            "type":"Feature",
            "geometry":{
                "type":"Point",
                "coordinates":[
                    "48.99",
                    "59.38"
                ]
            },
            "properties":{
                "Station":"Киров-5",
                "Location":"Кировская область",
                "Lat":"59.38",
                "Lon":"48.99",
                "web":" "
            }
        },
        {
            "type":"Feature",
            "geometry":{
                "type":"Point",
                "coordinates":[
                    "47.41",
                    "59.42"
                ]
            },
            "properties":{
                "Station":"Киров-6",
                "Location":"Кировская область",
                "Lat":"59.42",
                "Lon":"47.41",
                "web":" "
            }
        },
        {
            "type":"Feature",
            "geometry":{
                "type":"Point",
                "coordinates":[
                    "48.99",
                    "59.38"
                ]
            },
            "properties":{
                "Station":"Киров-7",
                "Location":"Кировская область",
                "Lat":"59.38",
                "Lon":"48.99",
                "web":" "
            }
        },
        {
            "type":"Feature",
            "geometry":{
                "type":"Point",
                "coordinates":[
                    "47.87",
                    "59.01"
                ]
            },
            "properties":{
                "Station":"Киров-8",
                "Location":"Кировская область",
                "Lat":"59.01",
                "Lon":"47.87",
                "web":" "
            }
        },
        {
            "type":"Feature",
            "geometry":{
                "type":"Point",
                "coordinates":[
                    "47.09",
                    "58.31"
                ]
            },
            "properties":{
                "Station":"Киров-9",
                "Location":"Кировская область, Шабалинский район, поселок городского типа Ленинское",
                "Lat":"58.31",
                "Lon":"47.09",
                "web":" "
            }
        },
        {
            "type":"Feature",
            "geometry":{
                "type":"Point",
                "coordinates":[
                    "47.93",
                    "57.62"
                ]
            },
            "properties":{
                "Station":"Киров-10",
                "Location":"Кировская область, Тужинский район",
                "Lat":"57.62",
                "Lon":"47.93",
                "web":" "
            }
        },
        {
            "type":"Feature",
            "geometry":{
                "type":"Point",
                "coordinates":[
                    "47.86",
                    "57.29"
                ]
            },
            "properties":{
                "Station":"Киров-11",
                "Location":"Кировская область",
                "Lat":"57.29",
                "Lon":"47.86",
                "web":" "
            }
        },
        {
            "type":"Feature",
            "geometry":{
                "type":"Point",
                "coordinates":[
                    "49.01",
                    "57.59"
                ]
            },
            "properties":{
                "Station":"Киров-12",
                "Location":"Кировская область",
                "Lat":"57.59",
                "Lon":"49.01",
                "web":" "
            }
        },
        {
            "type":"Feature",
            "geometry":{
                "type":"Point",
                "coordinates":[
                    "49.10",
                    "58.00"
                ]
            },
            "properties":{
                "Station":"Киров-13",
                "Location":"Кировская область, Верхошижемский район, поселок городского типа Верхошижемье",
                "Lat":"58.00",
                "Lon":"49.10",
                "web":" "
            }
        },
        {
            "type":"Feature",
            "geometry":{
                "type":"Point",
                "coordinates":[
                    "48.30",
                    "58.31"
                ]
            },
            "properties":{
                "Station":"Киров-14",
                "Location":"Кировская область, городской округ Котельнич",
                "Lat":"58.31",
                "Lon":"48.30",
                "web":" "
            }
        },
        {
            "type":"Feature",
            "geometry":{
                "type":"Point",
                "coordinates":[
                    "49.05",
                    "58.39"
                ]
            },
            "properties":{
                "Station":"Киров-15",
                "Location":"Кировская область, Оричевский район, поселок городского типа Оричи",
                "Lat":"58.39",
                "Lon":"49.05",
                "web":" "
            }
        },
        {
            "type":"Feature",
            "geometry":{
                "type":"Point",
                "coordinates":[
                    "49.27",
                    "59.04"
                ]
            },
            "properties":{
                "Station":"Киров-16",
                "Location":"Кировская область, Юрьянский район, поселок городского типа Юрья",
                "Lat":"59.04",
                "Lon":"49.27",
                "web":" "
            }
        },
        {
            "type":"Feature",
            "geometry":{
                "type":"Point",
                "coordinates":[
                    "49.64",
                    "58.58"
                ]
            },
            "properties":{
                "Station":"Киров-17",
                "Location":"Киров, улица Сурикова",
                "Lat":"58.58",
                "Lon":"49.64",
                "web":" "
            }
        },
        {
            "type":"Feature",
            "geometry":{
                "type":"Point",
                "coordinates":[
                    "50.05",
                    "58.54"
                ]
            },
            "properties":{
                "Station":"Киров-18",
                "Location":"Кировская область, Кирово-Чепецк",
                "Lat":"58.54",
                "Lon":"50.05",
                "web":" "
            }
        },
        {
            "type":"Feature",
            "geometry":{
                "type":"Point",
                "coordinates":[
                    "49.92",
                    "58.10"
                ]
            },
            "properties":{
                "Station":"Киров-19",
                "Location":"Кировская область, Куменский район",
                "Lat":"58.10",
                "Lon":"49.92",
                "web":" "
            }
        },
        {
            "type":"Feature",
            "geometry":{
                "type":"Point",
                "coordinates":[
                    "49.93",
                    "57.55"
                ]
            },
            "properties":{
                "Station":"Киров-20",
                "Location":"Кировская область, Нолинск",
                "Lat":"57.55",
                "Lon":"49.93",
                "web":" "
            }
        },
        {
            "type":"Feature",
            "geometry":{
                "type":"Point",
                "coordinates":[
                    "49.99",
                    "57.10"
                ]
            },
            "properties":{
                "Station":"Киров-21",
                "Location":"Кировская область",
                "Lat":"57.10",
                "Lon":"49.99",
                "web":" "
            }
        },
        {
            "type":"Feature",
            "geometry":{
                "type":"Point",
                "coordinates":[
                    "50.68",
                    "56.52"
                ]
            },
            "properties":{
                "Station":"Киров-22",
                "Location":"Кировская область, Малмыж, улица Урицкого",
                "Lat":"56.52",
                "Lon":"50.68",
                "web":" "
            }
        },
        {
            "type":"Feature",
            "geometry":{
                "type":"Point",
                "coordinates":[
                    "51.05",
                    "56.22"
                ]
            },
            "properties":{
                "Station":"Киров-23",
                "Location":"Кировская область, Вятские Поляны, Коммунальная улица",
                "Lat":"56.22",
                "Lon":"51.05",
                "web":" "
            }
        },
        {
            "type":"Feature",
            "geometry":{
                "type":"Point",
                "coordinates":[
                    "51.08",
                    "56.95"
                ]
            },
            "properties":{
                "Station":"Киров-24",
                "Location":"Кировская область, Кильмезский район, поселок городского типа Кильмезь",
                "Lat":"56.95",
                "Lon":"51.08",
                "web":" "
            }
        },
        {
            "type":"Feature",
            "geometry":{
                "type":"Point",
                "coordinates":[
                    "50.50",
                    "57.50"
                ]
            },
            "properties":{
                "Station":"Киров-25",
                "Location":"Кировская область, Немский район, поселок городского типа Нема",
                "Lat":"57.50",
                "Lon":"50.50",
                "web":" "
            }
        },
        {
            "type":"Feature",
            "geometry":{
                "type":"Point",
                "coordinates":[
                    "51.49",
                    "57.75"
                ]
            },
            "properties":{
                "Station":"Киров-26",
                "Location":"Кировская область, Унинский район, поселок городского типа Уни",
                "Lat":"57.75",
                "Lon":"51.49",
                "web":" "
            }
        },
        {
            "type":"Feature",
            "geometry":{
                "type":"Point",
                "coordinates":[
                    "50.74",
                    "57.83"
                ]
            },
            "properties":{
                "Station":"Киров-27",
                "Location":"Кировская область, Богородский район",
                "Lat":"57.83",
                "Lon":"50.74",
                "web":" "
            }
        },
        {
            "type":"Feature",
            "geometry":{
                "type":"Point",
                "coordinates":[
                    "51.13",
                    "58.40"
                ]
            },
            "properties":{
                "Station":"Киров-28",
                "Location":"Кировская область, Зуевка, улица Ленина",
                "Lat":"58.40",
                "Lon":"51.13",
                "web":" "
            }
        },
        {
            "type":"Feature",
            "geometry":{
                "type":"Point",
                "coordinates":[
                    "50.18",
                    "58.72"
                ]
            },
            "properties":{
                "Station":"Киров-29",
                "Location":"Кировская область, Слободской, Станционный переулок",
                "Lat":"58.72",
                "Lon":"50.18",
                "web":" "
            }
        },
        {
            "type":"Feature",
            "geometry":{
                "type":"Point",
                "coordinates":[
                    "50.80",
                    "59.32"
                ]
            },
            "properties":{
                "Station":"Киров-30",
                "Location":"Кировская область, Нагорский район, поселок городского типа Нагорск",
                "Lat":"59.32",
                "Lon":"50.80",
                "web":" "
            }
        },
        {
            "type":"Feature",
            "geometry":{
                "type":"Point",
                "coordinates":[
                    "50.83",
                    "58.84"
                ]
            },
            "properties":{
                "Station":"Киров-31",
                "Location":"Кировская область, Белая Холуница",
                "Lat":"58.84",
                "Lon":"50.83",
                "web":" "
            }
        },
        {
            "type":"Feature",
            "geometry":{
                "type":"Point",
                "coordinates":[
                    "52.18",
                    "58.67"
                ]
            },
            "properties":{
                "Station":"Киров-31",
                "Location":"Кировская область, Омутнинск, Комсомольская улица",
                "Lat":"58.67",
                "Lon":"52.18",
                "web":" "
            }
        },
        {
            "type":"Feature",
            "geometry":{
                "type":"Point",
                "coordinates":[
                    "52.23",
                    "59.34"
                ]
            },
            "properties":{
                "Station":"Киров-33",
                "Location":"Кировская область, Кирс, Березничная улица",
                "Lat":"59.34",
                "Lon":"52.23",
                "web":" "
            }
        },
        {
            "type":"Feature",
            "geometry":{
                "type":"Point",
                "coordinates":[
                    "53.26",
                    "58.85"
                ]
            },
            "properties":{
                "Station":"Киров-34",
                "Location":"Кировская область",
                "Lat":"58.85",
                "Lon":"53.26",
                "web":" "
            }
        },
        {
            "type":"Feature",
            "geometry":{
                "type":"Point",
                "coordinates":[
                    "52.64",
                    "59.72"
                ]
            },
            "properties":{
                "Station":"Киров-35",
                "Location":"Кировская область",
                "Lat":"59.72",
                "Lon":"52.64",
                "web":" "
            }
        },
        {
            "type":"Feature",
            "geometry":{
                "type":"Point",
                "coordinates":[
                    "38.96",
                    "45.03"
                ]
            },
            "properties":{
                "Station":"Краснодар-1",
                "Location":"Краснодар, Центральный микрорайон, Кубанская набережная",
                "Lat":"45.03",
                "Lon":"38.96",
                "web":" "
            }
        },
        {
            "type":"Feature",
            "geometry":{
                "type":"Point",
                "coordinates":[
                    "29.40",
                    "59.94"
                ]
            },
            "properties":{
                "Station":"Санкт-Петербург-1",
                "Location":"Ленинградская область",
                "Lat":"59.94",
                "Lon":"29.40",
                "web":" "
            }
        },
        {
            "type":"Feature",
            "geometry":{
                "type":"Point",
                "coordinates":[
                    "30.27",
                    "59.90"
                ]
            },
            "properties":{
                "Station":"Санкт-Петербург-2",
                "Location":"Санкт-Петербург, Кировский район",
                "Lat":"59.90",
                "Lon":"30.27",
                "web":" "
            }
        },
        {
            "type":"Feature",
            "geometry":{
                "type":"Point",
                "coordinates":[
                    "30.38",
                    "59.89"
                ]
            },
            "properties":{
                "Station":"Санкт-Петербург-3",
                "Location":"Санкт-Петербург, улица Салова",
                "Lat":"59.89",
                "Lon":"30.38",
                "web":" "
            }
        },
        {
            "type":"Feature",
            "geometry":{
                "type":"Point",
                "coordinates":[
                    "30.24",
                    "59.82"
                ]
            },
            "properties":{
                "Station":"Санкт-Петербург-4",
                "Location":"Санкт-Петербург",
                "Lat":"59.82",
                "Lon":"30.24",
                "web":" "
            }
        },
        {
            "type":"Feature",
            "geometry":{
                "type":"Point",
                "coordinates":[
                    "30.82",
                    "59.53"
                ]
            },
            "properties":{
                "Station":"Санкт-Петербург-5",
                "Location":"Ленинградская область",
                "Lat":"59.53",
                "Lon":"30.82",
                "web":" "
            }
        },
        {
            "type":"Feature",
            "geometry":{
                "type":"Point",
                "coordinates":[
                    "31.85",
                    "60.15"
                ]
            },
            "properties":{
                "Station":"Санкт-Петербург-6",
                "Location":"Ленинградская область",
                "Lat":"60.15",
                "Lon":"31.85",
                "web":" "
            }
        },
        {
            "type":"Feature",
            "geometry":{
                "type":"Point",
                "coordinates":[
                    "28.98",
                    "59.76"
                ]
            },
            "properties":{
                "Station":"Санкт-Петербург-7",
                "Location":"Ленинградская область",
                "Lat":"59.76",
                "Lon":"28.98",
                "web":" "
            }
        },
        {
            "type":"Feature",
            "geometry":{
                "type":"Point",
                "coordinates":[
                    "30.13",
                    "59.43"
                ]
            },
            "properties":{
                "Station":"Санкт-Петербург-8",
                "Location":"Ленинградская область",
                "Lat":"59.43",
                "Lon":"30.13",
                "web":" "
            }
        },
        {
            "type":"Feature",
            "geometry":{
                "type":"Point",
                "coordinates":[
                    "30.48",
                    "60.30"
                ]
            },
            "properties":{
                "Station":"Санкт-Петербург-9",
                "Location":"Ленинградская область",
                "Lat":"60.30",
                "Lon":"30.48",
                "web":" "
            }
        },
        {
            "type":"Feature",
            "geometry":{
                "type":"Point",
                "coordinates":[
                    "29.43",
                    "60.62"
                ]
            },
            "properties":{
                "Station":"Санкт-Петербург-10",
                "Location":"Ленинградская область, Выборгский район",
                "Lat":"60.62",
                "Lon":"29.43",
                "web":" "
            }
        },
        {
            "type":"Feature",
            "geometry":{
                "type":"Point",
                "coordinates":[
                    "78.16",
                    "55.38"
                ]
            },
            "properties":{
                "Station":"Новосибирск-1",
                "Location":"Новосибирская область",
                "Lat":"55.38",
                "Lon":"78.16",
                "web":" "
            }
        },
        {
            "type":"Feature",
            "geometry":{
                "type":"Point",
                "coordinates":[
                    "78.52",
                    "54.72"
                ]
            },
            "properties":{
                "Station":"Новосибирск-2",
                "Location":"Новосибирская область",
                "Lat":"54.72",
                "Lon":"78.52",
                "web":" "
            }
        },
        {
            "type":"Feature",
            "geometry":{
                "type":"Point",
                "coordinates":[
                    "79.00",
                    "54.08"
                ]
            },
            "properties":{
                "Station":"Новосибирск-3",
                "Location":"Новосибирская область",
                "Lat":"54.08",
                "Lon":"79.00",
                "web":" "
            }
        },
        {
            "type":"Feature",
            "geometry":{
                "type":"Point",
                "coordinates":[
                    "79.39",
                    "55.25"
                ]
            },
            "properties":{
                "Station":"Новосибирск-4",
                "Location":"Новосибирская область",
                "Lat":"55.25",
                "Lon":"79.39",
                "web":" "
            }
        },
        {
            "type":"Feature",
            "geometry":{
                "type":"Point",
                "coordinates":[
                    "80.32",
                    "54.44"
                ]
            },
            "properties":{
                "Station":"Новосибирск-5",
                "Location":"Новосибирская область",
                "Lat":"54.44",
                "Lon":"80.32",
                "web":" "
            }
        },
        {
            "type":"Feature",
            "geometry":{
                "type":"Point",
                "coordinates":[
                    "80.23",
                    "54.24"
                ]
            },
            "properties":{
                "Station":"Новосибирск-6",
                "Location":"Новосибирская область",
                "Lat":"54.24",
                "Lon":"80.23",
                "web":" "
            }
        },
        {
            "type":"Feature",
            "geometry":{
                "type":"Point",
                "coordinates":[
                    "80.10",
                    "55.20"
                ]
            },
            "properties":{
                "Station":"Новосибирск-7",
                "Location":"Новосибирская область",
                "Lat":"55.20",
                "Lon":"80.10",
                "web":" "
            }
        },
        {
            "type":"Feature",
            "geometry":{
                "type":"Point",
                "coordinates":[
                    "80.82",
                    "55.08"
                ]
            },
            "properties":{
                "Station":"Новосибирск-8",
                "Location":"Новосибирская область",
                "Lat":"55.08",
                "Lon":"80.82",
                "web":" "
            }
        },
        {
            "type":"Feature",
            "geometry":{
                "type":"Point",
                "coordinates":[
                    "81.46",
                    "54.92"
                ]
            },
            "properties":{
                "Station":"Новосибирск-9",
                "Location":"Новосибирская область",
                "Lat":"54.92",
                "Lon":"81.46",
                "web":" "
            }
        },
        {
            "type":"Feature",
            "geometry":{
                "type":"Point",
                "coordinates":[
                    "81.53",
                    "54.33"
                ]
            },
            "properties":{
                "Station":"Новосибирск-10",
                "Location":"Новосибирская область",
                "Lat":"54.33",
                "Lon":"81.53",
                "web":" "
            }
        },
        {
            "type":"Feature",
            "geometry":{
                "type":"Point",
                "coordinates":[
                    "82.30",
                    "53.83"
                ]
            },
            "properties":{
                "Station":"Новосибирск-11",
                "Location":"Новосибирская область",
                "Lat":"53.83",
                "Lon":"82.30",
                "web":" "
            }
        },
        {
            "type":"Feature",
            "geometry":{
                "type":"Point",
                "coordinates":[
                    "82.80",
                    "55.26"
                ]
            },
            "properties":{
                "Station":"Новосибирск-12",
                "Location":"Новосибирская область",
                "Lat":"55.26",
                "Lon":"82.80",
                "web":" "
            }
        },
        {
            "type":"Feature",
            "geometry":{
                "type":"Point",
                "coordinates":[
                    "82.84",
                    "54.86"
                ]
            },
            "properties":{
                "Station":"Новосибирск-13",
                "Location":"Новосибирская область",
                "Lat":"54.86",
                "Lon":"82.84",
                "web":" "
            }
        },
        {
            "type":"Feature",
            "geometry":{
                "type":"Point",
                "coordinates":[
                    "83.59",
                    "54.62"
                ]
            },
            "properties":{
                "Station":"Новосибирск-14",
                "Location":"Новосибирская область",
                "Lat":"54.62",
                "Lon":"83.59",
                "web":" "
            }
        },
        {
            "type":"Feature",
            "geometry":{
                "type":"Point",
                "coordinates":[
                    "83.53",
                    "54.28"
                ]
            },
            "properties":{
                "Station":"Новосибирск-15",
                "Location":"Новосибирская область",
                "Lat":"54.28",
                "Lon":"83.53",
                "web":" "
            }
        },
        {
            "type":"Feature",
            "geometry":{
                "type":"Point",
                "coordinates":[
                    "83.46",
                    "55.44"
                ]
            },
            "properties":{
                "Station":"Новосибирск-16",
                "Location":"Новосибирская область",
                "Lat":"55.44",
                "Lon":"83.46",
                "web":" "
            }
        },
        {
            "type":"Feature",
            "geometry":{
                "type":"Point",
                "coordinates":[
                    "83.94",
                    "54.34"
                ]
            },
            "properties":{
                "Station":"Новосибирск-17",
                "Location":"Новосибирская область",
                "Lat":"54.34",
                "Lon":"83.94",
                "web":" "
            }
        },
        {
            "type":"Feature",
            "geometry":{
                "type":"Point",
                "coordinates":[
                    "84.60",
                    "55.13"
                ]
            },
            "properties":{
                "Station":"Новосибирск-18",
                "Location":"Новосибирская область",
                "Lat":"55.13",
                "Lon":"84.60",
                "web":" "
            }
        },
        {
            "type":"Feature",
            "geometry":{
                "type":"Point",
                "coordinates":[
                    "84.36",
                    "55.89"
                ]
            },
            "properties":{
                "Station":"Новосибирск-19",
                "Location":"Новосибирская область",
                "Lat":"55.89",
                "Lon":"84.36",
                "web":" "
            }
        },
        {
            "type":"Feature",
            "geometry":{
                "type":"Point",
                "coordinates":[
                    "73.34",
                    "55.00"
                ]
            },
            "properties":{
                "Station":"Омск-1",
                "Location":"Омск, Советский округ",
                "Lat":"55.00",
                "Lon":"73.34",
                "web":" "
            }
        },
        {
            "type":"Feature",
            "geometry":{
                "type":"Point",
                "coordinates":[
                    "50.15",
                    "53.18"
                ]
            },
            "properties":{
                "Station":"Самара-1",
                "Location":"Самара, Авиационная улица",
                "Lat":"53.18",
                "Lon":"50.15",
                "web":" "
            }
        },
        {
            "type":"Feature",
            "geometry":{
                "type":"Point",
                "coordinates":[
                    "50.28",
                    "53.24"
                ]
            },
            "properties":{
                "Station":"Самара-2",
                "Location":"Самара, Кировский район",
                "Lat":"53.24",
                "Lon":"50.28",
                "web":" "
            }
        },
        {
            "type":"Feature",
            "geometry":{
                "type":"Point",
                "coordinates":[
                    "51.16",
                    "52.79"
                ]
            },
            "properties":{
                "Station":"Самара-3",
                "Location":"Самарская область, Нефтегорск, Восточная улица",
                "Lat":"52.79",
                "Lon":"51.16",
                "web":" "
            }
        },
        {
            "type":"Feature",
            "geometry":{
                "type":"Point",
                "coordinates":[
                    "51.44",
                    "52.61"
                ]
            },
            "properties":{
                "Station":"Самара-4",
                "Location":"Самарская область",
                "Lat":"52.61",
                "Lon":"51.44",
                "web":" "
            }
        },
        {
            "type":"Feature",
            "geometry":{
                "type":"Point",
                "coordinates":[
                    "51.21",
                    "52.47"
                ]
            },
            "properties":{
                "Station":"Самара-5",
                "Location":"Самарская область",
                "Lat":"52.47",
                "Lon":"51.21",
                "web":" "
            }
        },
        {
            "type":"Feature",
            "geometry":{
                "type":"Point",
                "coordinates":[
                    "51.21",
                    "52.47"
                ]
            },
            "properties":{
                "Station":"Самара-6",
                "Location":"Самарская область",
                "Lat":"52.47",
                "Lon":"51.21",
                "web":" "
            }
        },
        {
            "type":"Feature",
            "geometry":{
                "type":"Point",
                "coordinates":[
                    "52.25",
                    "52.80"
                ]
            },
            "properties":{
                "Station":"Оренбург-1",
                "Location":"Оренбургская область, Бузулук",
                "Lat":"52.80",
                "Lon":"52.25",
                "web":" "
            }
        },
        {
            "type":"Feature",
            "geometry":{
                "type":"Point",
                "coordinates":[
                    "53.16",
                    "52.41"
                ]
            },
            "properties":{
                "Station":"Оренбург-2",
                "Location":"Оренбургская область, Сорочинск",
                "Lat":"52.41",
                "Lon":"53.16",
                "web":" "
            }
        },
        {
            "type":"Feature",
            "geometry":{
                "type":"Point",
                "coordinates":[
                    "53.16",
                    "52.58"
                ]
            },
            "properties":{
                "Station":"Оренбург-3",
                "Location":"Оренбургская область",
                "Lat":"52.58",
                "Lon":"53.16",
                "web":" "
            }
        },
        {
            "type":"Feature",
            "geometry":{
                "type":"Point",
                "coordinates":[
                    "54.48",
                    "53.06"
                ]
            },
            "properties":{
                "Station":"Оренбург-4",
                "Location":"Оренбургская область",
                "Lat":"53.06",
                "Lon":"54.48",
                "web":" "
            }
        },
        {
            "type":"Feature",
            "geometry":{
                "type":"Point",
                "coordinates":[
                    "54.97",
                    "52.41"
                ]
            },
            "properties":{
                "Station":"Оренбург-5",
                "Location":"Оренбургская область",
                "Lat":"52.41",
                "Lon":"54.97",
                "web":" "
            }
        },
        {
            "type":"Feature",
            "geometry":{
                "type":"Point",
                "coordinates":[
                    "49.08",
                    "55.75"
                ]
            },
            "properties":{
                "Station":"Татарстан-1",
                "Location":"Республика Татарстан, Казань",
                "Lat":"55.75",
                "Lon":"49.08",
                "web":" "
            }
        },
        {
            "type":"Feature",
            "geometry":{
                "type":"Point",
                "coordinates":[
                    "49.30",
                    "55.96"
                ]
            },
            "properties":{
                "Station":"Татарстан-2",
                "Location":"Республика Татарстан, Высокогорский район",
                "Lat":"55.96",
                "Lon":"49.30",
                "web":" "
            }
        },
        {
            "type":"Feature",
            "geometry":{
                "type":"Point",
                "coordinates":[
                    "49.94",
                    "56.36"
                ]
            },
            "properties":{
                "Station":"Татарстан-3",
                "Location":"Республика Татарстан",
                "Lat":"56.36",
                "Lon":"49.94",
                "web":" "
            }
        },
        {
            "type":"Feature",
            "geometry":{
                "type":"Point",
                "coordinates":[
                    "49.77",
                    "55.80"
                ]
            },
            "properties":{
                "Station":"Татарстан-4",
                "Location":"Республика Татарстан",
                "Lat":"55.80",
                "Lon":"49.77",
                "web":" "
            }
        },
        {
            "type":"Feature",
            "geometry":{
                "type":"Point",
                "coordinates":[
                    "49.61",
                    "55.36"
                ]
            },
            "properties":{
                "Station":"Татарстан-5",
                "Location":"Республика Татарстан, Лаишевский район",
                "Lat":"55.36",
                "Lon":"49.61",
                "web":" "
            }
        },
        {
            "type":"Feature",
            "geometry":{
                "type":"Point",
                "coordinates":[
                    "50.71",
                    "54.43"
                ]
            },
            "properties":{
                "Station":"Татарстан-6",
                "Location":"Республика Татарстан",
                "Lat":"54.43",
                "Lon":"50.71",
                "web":" "
            }
        },
        {
            "type":"Feature",
            "geometry":{
                "type":"Point",
                "coordinates":[
                    "52.47",
                    "55.69"
                ]
            },
            "properties":{
                "Station":"Татарстан-7",
                "Location":"Республика Татарстан, Набережные Челны, Тэцовский проезд",
                "Lat":"55.69",
                "Lon":"52.47",
                "web":" "
            }
        },
        {
            "type":"Feature",
            "geometry":{
                "type":"Point",
                "coordinates":[
                    "54.18",
                    "56.05"
                ]
            },
            "properties":{
                "Station":"Татарстан-8",
                "Location":"Республика Башкортостан",
                "Lat":"56.05",
                "Lon":"54.18",
                "web":" "
            }
        },
        {
            "type":"Feature",
            "geometry":{
                "type":"Point",
                "coordinates":[
                    "54.29",
                    "56.44"
                ]
            },
            "properties":{
                "Station":"Татарстан-9",
                "Location":"Удмуртская Республика",
                "Lat":"56.44",
                "Lon":"54.29",
                "web":" "
            }
        },
        {
            "type":"Feature",
            "geometry":{
                "type":"Point",
                "coordinates":[
                    "52.43",
                    "54.95"
                ]
            },
            "properties":{
                "Station":"Татарстан-10",
                "Location":"Республика Татарстан",
                "Lat":"54.95",
                "Lon":"52.43",
                "web":" "
            }
        },
        {
            "type":"Feature",
            "geometry":{
                "type":"Point",
                "coordinates":[
                    "52.79",
                    "54.51"
                ]
            },
            "properties":{
                "Station":"Татарстан-11",
                "Location":"Республика Татарстан",
                "Lat":"54.51",
                "Lon":"52.79",
                "web":" "
            }
        },
        {
            "type":"Feature",
            "geometry":{
                "type":"Point",
                "coordinates":[
                    "53.25",
                    "56.00"
                ]
            },
            "properties":{
                "Station":"Татарстан-12",
                "Location":"Республика Татарстан",
                "Lat":"56.00",
                "Lon":"53.25",
                "web":" "
            }
        },
        {
            "type":"Feature",
            "geometry":{
                "type":"Point",
                "coordinates":[
                    "22.20",
                    "54.59"
                ]
            },
            "properties":{
                "Station":"Калининград-1",
                "Location":"Калининградская область, Гусев, улица З. Космодемьянской",
                "Lat":"54.59",
                "Lon":"22.20",
                "web":" "
            }
        },
        {
            "type":"Feature",
            "geometry":{
                "type":"Point",
                "coordinates":[
                    "22.49",
                    "54.94"
                ]
            },
            "properties":{
                "Station":"Калининград-2",
                "Location":"Калининградская область, историческая область Скаловия",
                "Lat":"54.94",
                "Lon":"22.49",
                "web":" "
            }
        },
        {
            "type":"Feature",
            "geometry":{
                "type":"Point",
                "coordinates":[
                    "19.94",
                    "54.46"
                ]
            },
            "properties":{
                "Station":"Калининград-3",
                "Location":"Калининградская область, историческая область Натангия",
                "Lat":"54.46",
                "Lon":"19.94",
                "web":" "
            }
        },
        {
            "type":"Feature",
            "geometry":{
                "type":"Point",
                "coordinates":[
                    "21.01",
                    "54.44"
                ]
            },
            "properties":{
                "Station":"Калининград-4",
                "Location":"Калининградская область, Правдинск",
                "Lat":"54.44",
                "Lon":"21.01",
                "web":" "
            }
        },
        {
            "type":"Feature",
            "geometry":{
                "type":"Point",
                "coordinates":[
                    "21.73",
                    "54.53"
                ]
            },
            "properties":{
                "Station":"Калининград-5",
                "Location":"Калининградская область, Черняховский район",
                "Lat":"54.53",
                "Lon":"21.73",
                "web":" "
            }
        },
        {
            "type":"Feature",
            "geometry":{
                "type":"Point",
                "coordinates":[
                    "21.67",
                    "55.04"
                ]
            },
            "properties":{
                "Station":"Калининград-6",
                "Location":"Калининградская область, Славское городское поселение, Славск, Советская улица",
                "Lat":"55.04",
                "Lon":"21.67",
                "web":" "
            }
        },
        {
            "type":"Feature",
            "geometry":{
                "type":"Point",
                "coordinates":[
                    "48.39",
                    "54.30"
                ]
            },
            "properties":{
                "Station":"Ульяновск-1",
                "Location":"Ульяновск",
                "Lat":"54.30",
                "Lon":"48.39",
                "web":" "
            }
        },
        {
            "type":"Feature",
            "geometry":{
                "type":"Point",
                "coordinates":[
                    "72.11",
                    "71.22"
                ]
            },
            "properties":{
                "Station":"ЯНАО-1",
                "Location":"ЯНАО",
                "Lat":"71.22",
                "Lon":"72.11",
                "web":" "
            }
        },
        {
            "type":"Feature",
            "geometry":{
                "type":"Point",
                "coordinates":[
                    "39.25",
                    "45.01"
                ]
            },
            "properties":{
                "Station":"Краснодар-2",
                "Location":"городской округ Краснодар",
                "Lat":"45.01",
                "Lon":"39.25",
                "web":" "
            }
        },
        {
            "type":"Feature",
            "geometry":{
                "type":"Point",
                "coordinates":[
                    "38.76",
                    "45.05"
                ]
            },
            "properties":{
                "Station":"Краснодар-3",
                "Location":"Республика Адыгея",
                "Lat":"45.05",
                "Lon":"38.76",
                "web":" "
            }
        },
        {
            "type":"Feature",
            "geometry":{
                "type":"Point",
                "coordinates":[
                    "39.00",
                    "45.23"
                ]
            },
            "properties":{
                "Station":"Краснодар-4",
                "Location":"Краснодарский край, Динской район, станица Новотитаровская, Ейское шоссе",
                "Lat":"45.23",
                "Lon":"39.00",
                "web":" "
            }
        },
        {
            "type":"Feature",
            "geometry":{
                "type":"Point",
                "coordinates":[
                    "65.51",
                    "57.14"
                ]
            },
            "properties":{
                "Station":"Тюмень-1",
                "Location":"Тюмень, Можайский переулок",
                "Lat":"57.14",
                "Lon":"65.51",
                "web":" "
            }
        },
        {
            "type":"Feature",
            "geometry":{
                "type":"Point",
                "coordinates":[
                    "66.66",
                    "57.92"
                ]
            },
            "properties":{
                "Station":"Тюмень-2",
                "Location":"Тюменская область",
                "Lat":"57.92",
                "Lon":"66.66",
                "web":" "
            }
        },
        {
            "type":"Feature",
            "geometry":{
                "type":"Point",
                "coordinates":[
                    "67.78",
                    "57.70"
                ]
            },
            "properties":{
                "Station":"Тюмень-3",
                "Location":"Тюменская область",
                "Lat":"57.70",
                "Lon":"67.78",
                "web":" "
            }
        },
        {
            "type":"Feature",
            "geometry":{
                "type":"Point",
                "coordinates":[
                    "68.32",
                    "58.20"
                ]
            },
            "properties":{
                "Station":"Тюмень-4",
                "Location":"Тюменская область, Тобольский район",
                "Lat":"58.20",
                "Lon":"68.32",
                "web":" "
            }
        },